{
"type": "FeatureCollection",
"crs": { "type": "name", "properties": { "name": "urn:ogc:def:crs:OGC:1.3:CRS84" } },
"features": [
{ "type": "Feature", "properties": { "service": "Trafford", "name": "Altrincham", "address": "20 Stamford New Road, Altrincham", "postcode": "WA14 1EJ", "type": "Local authority run library", "email": "Altrincham.Library@trafford.gov.uk", "website": "www.trafford.gov.uk\/libraries" }, "geometry": { "type": "Point", "coordinates": [ -2.348526, 53.387565 ] } },
{ "type": "Feature", "properties": { "service": "Trafford", "name": "Coppice", "address": "Coppice Avenue, Sale", "postcode": "M33 4ND", "type": "Community run library", "email": "Coppice.Library@trafford.gov.uk", "website": "www.trafford.gov.uk\/libraries" }, "geometry": { "type": "Point", "coordinates": [ -2.34842, 53.414964 ] } },
{ "type": "Feature", "properties": { "service": "Trafford", "name": "Hale", "address": "Leigh Road, Hale", "postcode": "WA15 9BG", "type": "Community run library", "email": "Hale.Library@trafford.gov.uk", "website": "www.trafford.gov.uk\/libraries" }, "geometry": { "type": "Point", "coordinates": [ -2.343644, 53.376938 ] } },
{ "type": "Feature", "properties": { "service": "Trafford", "name": "Lostock", "address": "Selby Road, Lostock", "postcode": "M32 9PL", "type": "Community run library", "email": "Lostock.Library@trafford.gov.uk", "website": "www.trafford.gov.uk\/libraries" }, "geometry": { "type": "Point", "coordinates": [ -2.331554, 53.453681 ] } },
{ "type": "Feature", "properties": { "service": "Trafford", "name": "Old Trafford", "address": "Old Trafford Youth Centre, St Hilda's Road, Old Trafford", "postcode": "M16 9PQ", "type": "Local authority run library", "email": "OldTrafford.Library@trafford.gov.uk", "website": "www.trafford.gov.uk\/libraries" }, "geometry": { "type": "Point", "coordinates": [ -2.271909, 53.461148 ] } },
{ "type": "Feature", "properties": { "service": "Trafford", "name": "Partington", "address": "91 Central Road, Partington", "postcode": "M31 4FY", "type": "Local authority run library", "email": "Partington.Library@trafford.gov.uk", "website": "www.trafford.gov.uk\/libraries" }, "geometry": { "type": "Point", "coordinates": [ -2.425413, 53.417204 ] } },
{ "type": "Feature", "properties": { "service": "Trafford", "name": "Sale", "address": "Sale Waterside, Sale", "postcode": "M33 7ZF", "type": "Local authority run library", "email": "Sale.Library@trafford.gov.uk", "website": "www.trafford.gov.uk\/libraries" }, "geometry": { "type": "Point", "coordinates": [ -2.32, 53.425111 ] } },
{ "type": "Feature", "properties": { "service": "Trafford", "name": "Stretford", "address": "Kingsway, Stretford", "postcode": "M32 8AP", "type": "Local authority run library", "email": "Stretford.Library@trafford.gov.uk", "website": "www.trafford.gov.uk\/libraries" }, "geometry": { "type": "Point", "coordinates": [ -2.312555, 53.446092 ] } },
{ "type": "Feature", "properties": { "service": "Trafford", "name": "Timperley", "address": "405 Stockport Road, Timperley", "postcode": "WA15 7XR", "type": "Local authority run library", "email": "timperley.library@trafford.gov.uk", "website": "www.trafford.gov.uk\/libraries" }, "geometry": { "type": "Point", "coordinates": [ -2.315515, 53.398597 ] } },
{ "type": "Feature", "properties": { "service": "Trafford", "name": "Trafford Town Hall", "address": "Talbot Road, Stretford", "postcode": "M32 0TH", "type": "Local authority run library", "email": "townhall.library@trafford.gov.uk", "website": "www.trafford.gov.uk\/libraries" }, "geometry": { "type": "Point", "coordinates": [ -2.287483, 53.458999 ] } },
{ "type": "Feature", "properties": { "service": "Trafford", "name": "Urmston", "address": "Unit 34 Golden Way, Urmston", "postcode": "M41 0NA", "type": "Local authority run library", "email": "urmston.library@trafford.gov.uk", "website": "www.trafford.gov.uk\/libraries" }, "geometry": { "type": "Point", "coordinates": [ -2.354722, 53.449093 ] } },
{ "type": "Feature", "properties": { "service": "Trafford", "name": "Woodsend", "address": "Woodsend Road, Flixton", "postcode": "M41 8GN", "type": "Local authority run library", "email": "Woodsend.Library@trafford.gov.uk", "website": "www.trafford.gov.uk\/libraries" }, "geometry": { "type": "Point", "coordinates": [ -2.393504, 53.455039 ] } }
]
}
