{
"type": "FeatureCollection",
"crs": { "type": "name", "properties": { "name": "urn:ogc:def:crs:OGC:1.3:CRS84" } },
"features": [
{ "type": "Feature", "properties": { "service": "Stockport", "name": "Bramhall", "address": "Bramhall Lane South, Bramhall", "postcode": "SK7 2DU", "type": "Local authority run library", "email": "bramhall.library@stockport.gov.uk", "website": "www.stockport.gov.uk\/libraries" }, "geometry": { "type": "Point", "coordinates": [ -2.164867, 53.359998 ] } },
{ "type": "Feature", "properties": { "service": "Stockport", "name": "Bredbury", "address": "George Lane, Bredbury", "postcode": "SK6 1DJ", "type": "Local authority run library", "email": "bredbury.library@stockport.gov.uk", "website": "www.stockport.gov.uk\/libraries" }, "geometry": { "type": "Point", "coordinates": [ -2.101442, 53.416722 ] } },
{ "type": "Feature", "properties": { "service": "Stockport", "name": "Brinnington", "address": "First House, 367 Brinnington Road", "postcode": "SK5 8EN", "type": "Local authority run library", "email": "brinnington.library@stockport.gov.uk", "website": "www.stockport.gov.uk\/libraries" }, "geometry": { "type": "Point", "coordinates": [ -2.133475, 53.425942 ] } },
{ "type": "Feature", "properties": { "service": "Stockport", "name": "Cheadle", "address": "Ashfield Road, Cheadle", "postcode": "SK8 1BB", "type": "Local authority run library", "email": "cheadle.library@stockport.gov.uk", "website": "www.stockport.gov.uk\/libraries" }, "geometry": { "type": "Point", "coordinates": [ -2.21303, 53.39406 ] } },
{ "type": "Feature", "properties": { "service": "Stockport", "name": "Cheadle Hulme", "address": "Mellor Road, Cheadle Hulme", "postcode": "SK8 5AU", "type": "Local authority run library", "email": "cheadlehulme.library@stockport.gov.uk", "website": "www.stockport.gov.uk\/libraries" }, "geometry": { "type": "Point", "coordinates": [ -2.188914, 53.374919 ] } },
{ "type": "Feature", "properties": { "service": "Stockport", "name": "Edgeley", "address": "Edgeley Road, Edgeley", "postcode": "SK3 9NB", "type": "Local authority run library", "email": "edgeley.library@stockport.gov.uk", "website": "www.stockport.gov.uk\/libraries" }, "geometry": { "type": "Point", "coordinates": [ -2.172922, 53.400921 ] } },
{ "type": "Feature", "properties": { "service": "Stockport", "name": "Great Moor", "address": "Gladstone street, Great moor", "postcode": "SK2 7QF", "type": "Local authority run library", "email": "greatmoor.library@stockport.gov.uk", "website": "www.stockport.gov.uk\/libraries" }, "geometry": { "type": "Point", "coordinates": [ -2.133072, 53.388424 ] } },
{ "type": "Feature", "properties": { "service": "Stockport", "name": "Hazel Grove", "address": "Beech Avenue, Hazel Grove", "postcode": "SK7 4QP", "type": "Local authority run library", "email": "hazelgrove.library@stockport.gov.uk", "website": "www.stockport.gov.uk\/libraries" }, "geometry": { "type": "Point", "coordinates": [ -2.116401, 53.379039 ] } },
{ "type": "Feature", "properties": { "service": "Stockport", "name": "Heald Green", "address": "Finney Lane, Heald Green", "postcode": "SK8 3JB", "type": "Local authority run library", "email": "healdgreen.library@stockport.gov.uk", "website": "www.stockport.gov.uk\/libraries" }, "geometry": { "type": "Point", "coordinates": [ -2.228675, 53.369978 ] } },
{ "type": "Feature", "properties": { "service": "Stockport", "name": "Heatons", "address": "Thornfield Road, Heaton Moor", "postcode": "SK4 3LD", "type": "Local authority run library", "email": "heatons.library@stockport.gov.uk", "website": "www.stockport.gov.uk\/libraries" }, "geometry": { "type": "Point", "coordinates": [ -2.190725, 53.416677 ] } },
{ "type": "Feature", "properties": { "service": "Stockport", "name": "High Lane", "address": "Buxton Road, High Lane", "postcode": "SK6 8DX", "type": "Local authority run library", "email": "highlane.library@stockport.gov.uk", "website": "www.stockport.gov.uk\/libraries" }, "geometry": { "type": "Point", "coordinates": [ -2.069492, 53.364361 ] } },
{ "type": "Feature", "properties": { "service": "Stockport", "name": "Marple", "address": "Memorial Park, Marple", "postcode": "SK6 6BA", "type": "Local authority run library", "email": "marple.library@stockport.gov.uk", "website": "www.stockport.gov.uk\/libraries" }, "geometry": { "type": "Point", "coordinates": [ -2.06225, 53.396248 ] } },
{ "type": "Feature", "properties": { "service": "Stockport", "name": "Offerton", "address": "Offerton Community Centre, Mallowdale Road", "postcode": "SK2 5NX", "type": "Local authority run library", "email": "offerton.library@stockport.gov.uk", "website": "www.stockport.gov.uk\/libraries" }, "geometry": { "type": "Point", "coordinates": [ -2.121277, 53.391214 ] } },
{ "type": "Feature", "properties": { "service": "Stockport", "name": "Reddish", "address": "Gorton Road, Reddish", "postcode": "SK5 6UG", "type": "Local authority run library", "email": "reddish.library@stockport.gov.uk", "website": "www.stockport.gov.uk\/libraries" }, "geometry": { "type": "Point", "coordinates": [ -2.158377, 53.441183 ] } },
{ "type": "Feature", "properties": { "service": "Stockport", "name": "Stockport Central", "address": "Wellington Road South, Stockport", "postcode": "SK1 3RS", "type": "Local authority run library", "email": "lending.library@stockport.gov.uk", "website": "www.stockport.gov.uk\/libraries" }, "geometry": { "type": "Point", "coordinates": [ -2.160662, 53.408237 ] } }
]
}
