{
"type": "FeatureCollection",
"crs": { "type": "name", "properties": { "name": "urn:ogc:def:crs:OGC:1.3:CRS84" } },
"features": [
{ "type": "Feature", "properties": { "service": "Bolton", "name": "Blackrod Library", "address": "Blackrod Library, Church Street, Blackrod, Bolton", "postcode": "BL6 5EQ", "type": "Local authority run library", "email": "blackrod.library@bolton.gov.uk", "website": "http:\/\/www.bolton.gov.uk\/website\/pages\/Blackrodlibrary.aspx" }, "geometry": { "type": "Point", "coordinates": [ -2.585471, 53.594311 ] } },
{ "type": "Feature", "properties": { "service": "Bolton", "name": "Bolton Central Library", "address": "Bolton Library and Museum Services, Central Library, Le Mans Crescent, Bolton", "postcode": "BL1 1SE", "type": "Local authority run library", "email": "central.library@bolton.gov.uk", "website": "http:\/\/www.bolton.gov.uk\/website\/pages\/CentralLibrary.aspx" }, "geometry": { "type": "Point", "coordinates": [ -2.431294, 53.577385 ] } },
{ "type": "Feature", "properties": { "service": "Bolton", "name": "Breightmet Library", "address": "Breightmet Library, Breightmet Health Centre, Breightmet Fold Lane, Bolton", "postcode": "BL2 6NT", "type": "Local authority run library", "email": "breightmet.library@bolton.gov.uk", "website": "http:\/\/www.bolton.gov.uk\/website\/pages\/BreightmetLibrary.aspx" }, "geometry": { "type": "Point", "coordinates": [ -2.384279, 53.582354 ] } },
{ "type": "Feature", "properties": { "service": "Bolton", "name": "Bromley Cross Library", "address": "Bromley Cross Library, The Crescent, Bromley Cross, Bolton", "postcode": "BL7 9JU", "type": "Local authority run library", "email": "bromley.cross.library@bolton.gov.uk", "website": "http:\/\/www.bolton.gov.uk\/website\/pages\/BromleyCrossLibrary.aspx" }, "geometry": { "type": "Point", "coordinates": [ -2.417922, 53.616567 ] } },
{ "type": "Feature", "properties": { "service": "Bolton", "name": "Farnworth Library", "address": "Farnworth Library, Market Street, Farnworth, Bolton", "postcode": "BL4 7PG", "type": "Local authority run library", "email": "farnworth.library@bolton.gov.uk", "website": "http:\/\/www.bolton.gov.uk\/website\/pages\/FarnworthLibrary.aspx" }, "geometry": { "type": "Point", "coordinates": [ -2.396753, 53.551411 ] } },
{ "type": "Feature", "properties": { "service": "Bolton", "name": "Halliwell UCAN neighbourhood collection", "address": "Halliwell UCAN, Hatfield Road, Bolton", "postcode": "BL1 3BU", "type": "Local authority run library", "email": "halliwell.ucan@bolton.gov.uk", "website": "http:\/\/www.bolton.gov.uk\/website\/pages\/Neighbourhoodcollections.aspx" }, "geometry": { "type": "Point", "coordinates": [ -2.449467, 53.587771 ] } },
{ "type": "Feature", "properties": { "service": "Bolton", "name": "Harwood Library", "address": "Harwood Library, Gate Fold, Harwood, Bolton", "postcode": "BL2 3HN", "type": "Local authority run library", "email": "harwood.library@bolton.gov.uk", "website": "http:\/\/www.bolton.gov.uk\/website\/pages\/HarwoodLibrary.aspx" }, "geometry": { "type": "Point", "coordinates": [ -2.396858, 53.604523 ] } },
{ "type": "Feature", "properties": { "service": "Bolton", "name": "Heaton neighbourhood collection", "address": "Heaton Children's Centre, New Hall Lane, Bolton", "postcode": "BL1 5LF", "type": "Local authority run library", "email": "heatonandlostockchildrenscentre@bolton.gov.uk", "website": "http:\/\/www.bolton.gov.uk\/website\/pages\/HeatonandLostockChildrensCentre.aspx" }, "geometry": { "type": "Point", "coordinates": [ -2.464693, 53.584891 ] } },
{ "type": "Feature", "properties": { "service": "Bolton", "name": "High Street Library", "address": "High Street Library, High Street, Bolton", "postcode": "BL3 6SZ", "type": "Local authority run library", "email": "high.street.library@bolton.gov.uk", "website": "http:\/\/www.bolton.gov.uk\/website\/pages\/HighStreetLibrary.aspx" }, "geometry": { "type": "Point", "coordinates": [ -2.439102, 53.567164 ] } },
{ "type": "Feature", "properties": { "service": "Bolton", "name": "Highfield neighbourhood collection (The Orchards)", "address": "Highfield (The Orchards), Highfield Road, Bolton", "postcode": "BL4 0RN", "type": "Local authority run library", "email": "orchards@bolton.gov.uk", "website": "http:\/\/www.bolton.gov.uk\/website\/pages\/OrchardsChildrensCentre.aspx" }, "geometry": { "type": "Point", "coordinates": [ -2.42369, 53.544955 ] } },
{ "type": "Feature", "properties": { "service": "Bolton", "name": "Horwich Library", "address": "Horwich Library, Jones Street, Horwich, Bolton", "postcode": "BL6 7AJ", "type": "Local authority run library", "email": "horwich.library@bolton.gov.uk", "website": "http:\/\/www.bolton.gov.uk\/website\/pages\/HorwichLibrary.aspx" }, "geometry": { "type": "Point", "coordinates": [ -2.549202, 53.601853 ] } },
{ "type": "Feature", "properties": { "service": "Bolton", "name": "Little Lever Library", "address": "Little Lever Library, Coronation Square, Little Lever, Bolton", "postcode": "BL3 1LP", "type": "Local authority run library", "email": "littlelever.library@bolton.gov.uk", "website": "http:\/\/www.bolton.gov.uk\/website\/pages\/LittleLeverLibrary.aspx" }, "geometry": { "type": "Point", "coordinates": [ -2.369129, 53.561495 ] } },
{ "type": "Feature", "properties": { "service": "Bolton", "name": "Oldhams neighbourhood collection", "address": "Oldhams Children's Centre, Forfar Street, Bolton", "postcode": "BL1 6RN", "type": "Local authority run library", "email": "oldhamschildrenscentre@bolton.gov.uk", "website": "http:\/\/www.bolton.gov.uk\/website\/pages\/OldhamsChildrensCentre.aspx" }, "geometry": { "type": "Point", "coordinates": [ -2.438198, 53.605313 ] } },
{ "type": "Feature", "properties": { "service": "Bolton", "name": "Tonge UCAN neighbourhood collection", "address": "Tonge UCAN, Tonge Moor Road, Bolton", "postcode": "BL2 2LE", "type": "Local authority run library", "email": "tonge.ucancentre@boltonathome.org.uk", "website": "http:\/\/www.bolton.gov.uk\/website\/pages\/Neighbourhoodcollections.aspx" }, "geometry": { "type": "Point", "coordinates": [ -2.412134, 53.591888 ] } },
{ "type": "Feature", "properties": { "service": "Bolton", "name": "Westhoughton Library", "address": "Westhoughton Library, Library Street, Westhoughton, Bolton", "postcode": "BL5 3AT", "type": "Local authority run library", "email": "westhoughton.library@bolton.gov.uk", "website": "http:\/\/www.bolton.gov.uk\/website\/pages\/WesthoughtonLibrary.aspx" }, "geometry": { "type": "Point", "coordinates": [ -2.520505, 53.549004 ] } }
]
}
