{
"type": "FeatureCollection",
"crs": { "type": "name", "properties": { "name": "urn:ogc:def:crs:OGC:1.3:CRS84" } },
"features": [
{ "type": "Feature", "properties": { "service": "Manchester", "name": "Abraham Moss Library", "address": "Crescent Road, Crumpsall", "postcode": "M8 5UF", "type": "Local authority run library", "email": "libraries@manchester.gov.uk", "website": "http:\/\/www.manchester.gov.uk\/directory_record\/87763\/abraham_moss_library" }, "geometry": { "type": "Point", "coordinates": [ -2.235655, 53.512405 ] } },
{ "type": "Feature", "properties": { "service": "Manchester", "name": "Arcadia library and leisure centre", "address": "Yew Tree Avenue, Levenshulme", "postcode": "M19 3PH", "type": "Local authority run library", "email": null, "website": "http:\/\/www.manchester.gov.uk\/directory_record\/146625\/arcadia_library_and_leisure_centre" }, "geometry": { "type": "Point", "coordinates": [ -2.192994, 53.446066 ] } },
{ "type": "Feature", "properties": { "service": "Manchester", "name": "Avenue Library and Learning Centre", "address": "Victoria Avenue East, Blackley", "postcode": "M9 6HW", "type": "Local authority run library", "email": null, "website": "http:\/\/www.manchester.gov.uk\/directory_record\/87755\/avenue_library_and_learning_centre" }, "geometry": { "type": "Point", "coordinates": [ -2.207643, 53.532545 ] } },
{ "type": "Feature", "properties": { "service": "Manchester", "name": "Barlow Moor Community Library", "address": "3 Merseybank Avenue, Chorlton", "postcode": "M21 7NN", "type": "Community run library", "email": null, "website": "http:\/\/www.manchester.gov.uk\/directory_record\/110747\/barlow_moor_community_library" }, "geometry": { "type": "Point", "coordinates": [ -2.263012, 53.42276 ] } },
{ "type": "Feature", "properties": { "service": "Manchester", "name": "Beswick Library", "address": "60 Grey Mare Lane, Beswick", "postcode": "M11 3DS", "type": "Local authority run library", "email": null, "website": "http:\/\/www.manchester.gov.uk\/directory_record\/110374\/beswick_library" }, "geometry": { "type": "Point", "coordinates": [ -2.196603, 53.477968 ] } },
{ "type": "Feature", "properties": { "service": "Manchester", "name": "Brooklands Library", "address": "Moor Road, Wythenshawe", "postcode": "M23 9BP", "type": "Local authority run library", "email": null, "website": "http:\/\/www.manchester.gov.uk\/directory_record\/110374\/beswick_library" }, "geometry": { "type": "Point", "coordinates": [ -2.296316, 53.401595 ] } },
{ "type": "Feature", "properties": { "service": "Manchester", "name": "Burnage Library, Activity and Information Hub", "address": "Burnage Lane, Burnage", "postcode": "M19 1EW", "type": "Community run library", "email": "info@burnageactivityhub.org.uk", "website": "http:\/\/www.manchester.gov.uk\/directory_record\/87759\/burnage_library_activity_and_information_hub" }, "geometry": { "type": "Point", "coordinates": [ -2.200433, 53.43018 ] } },
{ "type": "Feature", "properties": { "service": "Manchester", "name": "Chorlton Library", "address": "Manchester Road, Chorlton", "postcode": "M21 9PN", "type": "Local authority run library", "email": null, "website": "http:\/\/www.manchester.gov.uk\/directory_record\/87761\/chorlton_library" }, "geometry": { "type": "Point", "coordinates": [ -2.279043, 53.444269 ] } },
{ "type": "Feature", "properties": { "service": "Manchester", "name": "Didsbury Library", "address": "692 Wilmslow Road, Didsbury", "postcode": "M21 9PN", "type": "Local authority run library", "email": null, "website": "http:\/\/www.manchester.gov.uk\/directory_record\/87764\/didsbury_library" }, "geometry": { "type": "Point", "coordinates": [ -2.279043, 53.444269 ] } },
{ "type": "Feature", "properties": { "service": "Manchester", "name": "Fallowfield Community Library", "address": "The Place at Platt Lane, Platt Lane", "postcode": "M14 7FB", "type": "Community run library", "email": null, "website": "http:\/\/www.manchester.gov.uk\/directory_record\/87765\/fallowfield_community_library" }, "geometry": { "type": "Point", "coordinates": [ -2.237369, 53.44684 ] } },
{ "type": "Feature", "properties": { "service": "Manchester", "name": "Forum Library Wythenshawe", "address": "Forum Square, Wythenshawe", "postcode": "M22 5RX", "type": "Local authority run library", "email": null, "website": "http:\/\/www.manchester.gov.uk\/directory_record\/87766\/forum_library_wythenshawe" }, "geometry": { "type": "Point", "coordinates": [ -2.265017, 53.379925 ] } },
{ "type": "Feature", "properties": { "service": "Manchester", "name": "Gorton Library", "address": "Garratt Way, Gorton", "postcode": "M18 8HE", "type": "Local authority run library", "email": null, "website": "http:\/\/www.manchester.gov.uk\/directory_record\/87767\/gorton_library" }, "geometry": { "type": "Point", "coordinates": [ -2.174334, 53.462904 ] } },
{ "type": "Feature", "properties": { "service": "Manchester", "name": "Hulme High Street Library", "address": "Hulme High Street, Moss Lane East", "postcode": "M15 5NN", "type": "Local authority run library", "email": null, "website": "http:\/\/www.manchester.gov.uk\/directory_record\/87769\/hulme_high_street_library" }, "geometry": { "type": "Point", "coordinates": [ -2.247522, 53.460644 ] } },
{ "type": "Feature", "properties": { "service": "Manchester", "name": "Longsight Library and Learning Centre", "address": "519 Stockport Road, Longsight", "postcode": "M12 4NE", "type": "Local authority run library", "email": null, "website": "http:\/\/www.manchester.gov.uk\/directory_record\/87771\/longsight_library_and_learning_centre" }, "geometry": { "type": "Point", "coordinates": [ -2.200953, 53.457817 ] } },
{ "type": "Feature", "properties": { "service": "Manchester", "name": "Manchester Central library", "address": "St Peters Square, City Centre", "postcode": "M2 5PD", "type": "Local authority run library", "email": null, "website": "http:\/\/www.manchester.gov.uk\/directory_record\/87760\/central_library" }, "geometry": { "type": "Point", "coordinates": [ -2.244594, 53.477944 ] } },
{ "type": "Feature", "properties": { "service": "Manchester", "name": "Miles Platting Community Library", "address": "Victoria Mill Community Centre, Lower Vickers Street, Miles Platting", "postcode": "M40 8EE", "type": "Community run library", "email": null, "website": "http:\/\/www.manchester.gov.uk\/directory_record\/87772\/miles_platting_community_library" }, "geometry": { "type": "Point", "coordinates": [ -2.212775, 53.491018 ] } },
{ "type": "Feature", "properties": { "service": "Manchester", "name": "Moss Side Powerhouse Library", "address": "140 Raby Street, Moss Side", "postcode": "M14 4SL", "type": "Local authority run library", "email": null, "website": "http:\/\/www.manchester.gov.uk\/directory_record\/87773\/moss_side_powerhouse_library" }, "geometry": { "type": "Point", "coordinates": [ -2.241721, 53.4576 ] } },
{ "type": "Feature", "properties": { "service": "Manchester", "name": "New Moston Community Library", "address": "Nuthurst Road, New Moston", "postcode": "M40 3PJ", "type": "Community run library", "email": null, "website": "http:\/\/www.manchester.gov.uk\/directory_record\/87774\/new_moston_community_library" }, "geometry": { "type": "Point", "coordinates": [ -2.167391, 53.516619 ] } },
{ "type": "Feature", "properties": { "service": "Manchester", "name": "Newton Heath Library", "address": "Old Church Street, Newton Heath", "postcode": "M40 2JB", "type": "Local authority run library", "email": null, "website": "http:\/\/www.manchester.gov.uk\/directory_record\/87775\/newton_heath_library" }, "geometry": { "type": "Point", "coordinates": [ -2.182935, 53.501505 ] } },
{ "type": "Feature", "properties": { "service": "Manchester", "name": "North City Library", "address": "Rochdale Road, Harpurhey", "postcode": "M9 4AF", "type": "Local authority run library", "email": null, "website": "http:\/\/www.manchester.gov.uk\/directory_record\/87776\/north_city_library" }, "geometry": { "type": "Point", "coordinates": [ -2.212786, 53.514262 ] } },
{ "type": "Feature", "properties": { "service": "Manchester", "name": "Northenden Community Library", "address": "Parkway Green House, 460 Palatine Road, Northenden", "postcode": "M22 4WL", "type": "Community run library", "email": null, "website": "http:\/\/www.manchester.gov.uk\/directory_record\/87777\/northenden_community_library" }, "geometry": { "type": "Point", "coordinates": [ -2.258537, 53.407004 ] } },
{ "type": "Feature", "properties": { "service": "Manchester", "name": "Withington Library", "address": "410 Wilmslow Road, Withington", "postcode": "M20 3BN", "type": "Local authority run library", "email": null, "website": "http:\/\/www.manchester.gov.uk\/directory_record\/87778\/withington_library" }, "geometry": { "type": "Point", "coordinates": [ -2.226289, 53.436011 ] } }
]
}
